[
   {
      "$id":"1",
      "name":"Test itemName 1",
      "themeName":"ASD",
      "addressLine1":"18 Banksia Street",
      "addressLine2":null,
      "suburb":"Heidelberg",
      "state":"VIC",
      "postalCode":"3084",
      "contactPhone":"+61 3 123456",
      "emailAddress":"qwerty.it@xyz.com",
      "string":"Listen",
      "latitude":-37.759202,
      "longitude":145.0651
   },
   {
      "$id":"2",
      "name":"Test itemName 2",
      "themeName":"WER",
      "addressLine1":"11 Riverview Place",
      "addressLine2":"Metroplex on Gateway",
      "suburb":"Murarrie",
      "state":"QLD",
      "postalCode":"4172",
      "contactPhone":"1300 73123456",
      "emailAddress":"asdfg.it@xyz.com",
      "latitude":-27.449425,
      "longitude":153.100814
   },
   {
      "$id":"3",
      "name":"Test itemName 3",
      "themeName":"ERT",
      "addressLine1":"60 Waterloo Road",
      "addressLine2":null,
      "suburb":"North Ryde",
      "state":"NSW",
      "postalCode":"2113",
      "contactPhone":"123456",
      "emailAddress":"zxcvb.it@xyz.com",
      "latitude":-33.7816183,
      "longitude":151.1235765
   }
]