[
  {
    "markerId": 0,
    "name": "Ambonnay Champagne Bar",
    "url": "http://www.ambonnaybar.com/",
    "type": "Wine Bar",
    "address": "107 SE Washington St",
    "city": "Portland",
    "state": "OR",
    "image": "/images/bars/ambonnay.jpg",
    "lat": 45.518814,
    "lng": -122.664587,
    "features": "<span class='chip'>drinks<i class='material-icons'>local_bar</i></span>",
    "saved": ""
  },
  {
    "markerId": 1,
    "name": "B Side Tavern",
    "url": "https://www.facebook.com/pages/B-Side-Tavern/285188399929",
    "type": "Bar",
    "address": "632 E Burnside St",
    "city": "Portland",
    "state": "OR",
    "image": "/images/bars/b-side-tavern.jpg",
    "lat": 45.522739,
    "lng": -122.658929,
    "features": "<span class='chip'>beers<i class='material-icons'>local_drink</i></span><span class='chip'>food<i class='material-icons'>local_dining</i></span>",
    "saved": ""
  },
  {
    "markerId": 2,
    "name": "Bunk Bar",
    "url": "http://www.bunksandwiches.com/bunkbar/",
    "type": "Bar",
    "address": "1028 Southeast Water Avenue #130",
    "city": "Portland",
    "state": "OR",
    "image": "/images/bars/bunk.jpg",
    "lat": 45.515332,
    "lng": -122.665569,
    "features": "<span class='chip'>beers<i class='material-icons'>local_drink</i></span><span class='chip'>drinks<i class='material-icons'>local_bar</i></span><span class='chip'>food<i class='material-icons'>local_dining</i></span>",
    "saved": ""
  },
  {
    "markerId": 3,
    "name": "Burnside Brewing Company",
    "url": "http://www.burnsidebrewco.com/",
    "type": "Brewery",
    "address": "701 East Burnside Street",
    "city": "Portland",
    "state": "OR",
    "image": "/images/bars/burnside-brewing.jpg",
    "lat": 45.523395,
    "lng": -122.658372,
    "features": "<span class='chip'>beers<i class='material-icons'>local_drink</i></span><span class='chip'>drinks<i class='material-icons'>local_bar</i></span><span class='chip'>food<i class='material-icons'>local_dining</i></span>",
    "saved": ""
  },
  {
    "markerId": 4,
    "name": "Cascade Brewing",
    "url": "http://www.cascadebrewingbarrelhouse.com/",
    "type": "Brewery",
    "address": "939 Southeast Belmont Street",
    "city": "Portland",
    "state": "OR",
    "image": "/images/bars/cascade-barrel.jpg",
    "lat": 45.516667,
    "lng": -122.656041,
    "features": "<span class='chip'>beers<i class='material-icons'>local_drink</i></span><span class='chip'>patio<i class='material-icons'>nature_people</i></span><span class='chip'>drinks<i class='material-icons'>local_bar</i></span> <span class='chip'>park<i class='material-icons'>directions_bike</i></span><span class='chip'>food<i class='material-icons'>local_dining</i></span>",
    "saved": ""
  },
  {
    "markerId": 5,
    "name": "Dig A Pony",
    "url": "http://digaponyportland.com/",
    "type": "Bar",
    "address": "736 SE Grand Ave",
    "city": "Portland",
    "state": "OR",
    "image": "/images/bars/dig-a-pony.jpg",
    "lat": 45.517413,
    "lng": -122.660375,
    "features": "<span class='chip'>beers<i class='material-icons'>local_drink</i></span><span class='chip'>drinks<i class='material-icons'>local_bar</i></span><span class='chip'>food<i class='material-icons'>local_dining</i></span>",
    "saved": ""
  },
  {
    "markerId": 6,
    "name": "Doug Fir",
    "url": "http://www.dougfirlounge.com/",
    "type": "Lounge",
    "address": "830 E Burnside St",
    "city": "Portland",
    "state": "OR",
    "image": "/images/bars/doug-fir.jpg",
    "lat": 45.522641,
    "lng": -122.656824,
    "features": "<span class='chip'>beers<i class='material-icons'>local_drink</i></span><span class='chip'>drinks<i class='material-icons'>local_bar</i></span><span class='chip'>food<i class='material-icons'>local_dining</i></span>",
    "saved": ""
  },
  {
    "markerId": 7,
    "name": "Duffs Garage Bar and Grill",
    "url": "http://www.duffsgarage.com/",
    "type": "Sports Bar",
    "address": "1635 Southeast 7th Avenue",
    "city": "Portland",
    "state": "OR",
    "image": "/images/bars/duffs.jpg",
    "lat": 45.511197,
    "lng": -122.658737,
    "features": "<span class='chip'>food<i class='material-icons'>local_dining</i></span><span class='chip'>drinks<i class='material-icons'>local_bar</i></span>",
    "saved": ""
  },
  {
    "markerId": 8,
    "name": "East Bank Saloon",
    "url": "http://www.eastbanksaloon.com/",
    "type": "Bar",
    "address": "727 SE Grand Ave",
    "city": "Portland",
    "state": "OR",
    "image": "/images/bars/eastbank-saloon.jpg",
    "lat": 45.517516,
    "lng": -122.661045,
    "features": "<span class='chip'>drinks<i class='material-icons'>local_bar</i></span><span class='chip'>food<i class='material-icons'>local_dining</i></span>",
    "saved": ""
  },
  {
    "markerId": 9,
    "name": "East End",
    "url": "http://www.eastendportland.com/",
    "type": "Bar",
    "address": "203 Southeast Grand Avenue",
    "city": "Portland",
    "state": "OR",
    "image": "/images/bars/east-end.jpg",
    "lat": 45.521391,
    "lng": -122.660949,
    "features": "<span class='chip'>drinks<i class='material-icons'>local_bar</i></span>",
    "saved": ""
  },
  {
    "markerId": 10,
    "name": "Grand Cafe",
    "url": "http://www.grandcafepdx.com/",
    "type": "Restaurant",
    "address": "832 SE Grand Ave",
    "city": "Portland",
    "state": "OR",
    "image": "/images/bars/grand-cafe.jpg",
    "lat": 45.51665,
    "lng": -122.660404,
    "features": "<span class='chip'>food<i class='material-icons'>local_dining</i></span><span class='chip'>drinks<i class='material-icons'>local_bar</i></span>",
    "saved": ""
  },
  {
    "markerId": 11,
    "name": "Green Dragon Bistro and Brew",
    "url": "http://www.pdxgreendragon.com/",
    "type": "Brewery",
    "address": "928 Southeast 9th Avenue",
    "city": "Portland",
    "state": "OR",
    "image": "/images/bars/green-dragon.jpg",
    "lat": 45.515956,
    "lng": -122.65644,
    "features": "<span class='chip'>beers<i class='material-icons'>local_drink</i></span><span class='chip'>drinks<i class='material-icons'>local_bar</i></span><span class='chip'>food<i class='material-icons'>local_dining</i></span>",
    "saved": ""
  },
  {
    "markerId": 12,
    "name": "Hair of the Dog Brewing",
    "url": "http://www.hairofthedog.com/",
    "type": "Brewery",
    "address": "61 Southeast Yamhill Street",
    "city": "Portland",
    "state": "OR",
    "image": "/images/bars/hair-of-the-dog.jpg",
    "lat": 45.515992,
    "lng": -122.665549,
    "features": "<span class='chip'>beers<i class='material-icons'>local_drink</i></span><span class='chip'>drinks<i class='material-icons'>local_bar</i></span><span class='chip'>food<i class='material-icons'>local_dining</i></span>",
    "saved": ""
  },
  {
    "markerId": 13,
    "name": "Holocene",
    "url": "http://www.holocene.org/",
    "type": "Dance",
    "address": "1001 Southeast Morrison Street",
    "city": "Portland",
    "state": "OR",
    "image": "/images/bars/holocene.jpg",
    "lat": 45.517574,
    "lng": -122.655328,
    "features": "<span class='chip'>drinks<i class='material-icons'>local_bar</i></span>",
    "saved": ""
  },
  {
    "markerId": 14,
    "name": "J and M Cafe",
    "url": "http://www.jandmcafepdx.com/",
    "type": "Bar",
    "address": "537 Southeast Ash Street",
    "city": "Portland",
    "state": "OR",
    "image": "/images/bars/jm-cafe.jpg",
    "lat": 45.521815,
    "lng": -122.659916,
    "features": "<span class='chip'>food<i class='material-icons'>local_dining</i></span>",
    "saved": ""
  },
  {
    "markerId": 15,
    "name": "Cest Si Bon",
    "url": "http://www.cestsibonpdx.com/",
    "type": "Wine Bar",
    "address": "22 NE 7th Ave",
    "city": "Portland",
    "state": "OR",
    "image": "/images/bars/cest-si-bon.jpg",
    "lat": 45.523376,
    "lng": -122.658483,
    "features": "<span class='chip'>food<i class='material-icons'>local_dining</i></span><span class='chip'>drinks<i class='material-icons'>local_bar</i></span>",
    "saved": ""
  },
  {
    "markerId": 16,
    "name": "La Bistro Montage",
    "url": "http://www.montageportland.com/",
    "type": "Restaurant",
    "address": "301 SE Morrison St",
    "city": "Portland",
    "state": "OR",
    "image": "/images/bars/bistro-montage.jpg",
    "lat": 45.517444,
    "lng": -122.662623,
    "features": "<span class='chip'>restaurant<i class='material-icons'>restaurant</i></span><span class='chip'>drinks<i class='material-icons'>local_bar</i></span>",
    "saved": ""
  },
  {
    "markerId": 17,
    "name": "Morrison Hotel",
    "url": "http://www.mohobar.com/",
    "type": "Bar",
    "address": "719 Southeast Morrison Street",
    "city": "Portland",
    "state": "OR",
    "image": "/images/bars/morrison.jpg",
    "lat": 45.517393,
    "lng": -122.658065,
    "features": "<span class='chip'>drinks<i class='material-icons'>local_bar</i></span>",
    "saved": ""
  },
  {
    "markerId": 18,
    "name": "My Fathers Place",
    "url": "http://www.myfathersplacepdx.com/",
    "type": "Dive Bar",
    "address": "523 SE Grand Ave",
    "city": "Portland",
    "state": "OR",
    "image": "/images/bars/my-fathers-place.jpg",
    "lat": 45.518818,
    "lng": -122.660922,
    "features": "<span class='chip'>drinks<i class='material-icons'>local_bar</i></span>",
    "saved": ""
  },
  {
    "markerId": 19,
    "name": "New Deal Tasting Room",
    "url": "http://www.newdealdistillery.com/the-new-deal-tasting-room/",
    "type": "Tasting Room",
    "address": "900 Southeast Salmon Street",
    "city": "Portland",
    "state": "OR",
    "image": "/images/bars/new-deal.jpg",
    "lat": 45.51417,
    "lng": -122.656472,
    "features": "<span class='chip'>drinks<i class='material-icons'>local_bar</i></span>",
    "saved": ""
  },
  {
    "markerId": 20,
    "name": "Nicholas Restaurant",
    "url": "http://nicholasrestaurant.com/",
    "type": "Restaurant",
    "address": "318 SE Grand Ave",
    "city": "Portland",
    "state": "OR",
    "image": "/images/bars/nicholas-restaurant.jpg",
    "lat": 45.520472,
    "lng": -122.66041,
    "features": "<span class='chip'>restaurant<i class='material-icons'>restaurant</i></span><span class='chip'>drinks<i class='material-icons'>local_bar</i></span>",
    "saved": ""
  },
  {
    "markerId": 21,
    "name": "Pacific Pie Co",
    "url": "http://www.pacificpie.com/",
    "type": "Restaurant",
    "address": "1520 SE 7th Ave",
    "city": "Portland",
    "state": "OR",
    "image": "/images/bars/pacific-pie-co.jpg",
    "lat": 45.511831,
    "lng": -122.658399,
    "features": "<span class='chip'>food<i class='material-icons'>local_dining</i></span><span class='chip'>drinks<i class='material-icons'>local_bar</i></span>",
    "saved": ""
  },
  {
    "markerId": 22,
    "name": "Produce Row Cafe",
    "url": "http://www.producerowcafe.com/",
    "type": "Bar",
    "address": "204 Southeast Oak Street",
    "city": "Portland",
    "state": "OR",
    "image": "/images/bars/produce-row-cafe.jpg",
    "lat": 45.519941,
    "lng": -122.663541,
    "features": "<span class='chip'>beers<i class='material-icons'>local_drink</i></span><span class='chip'>drinks<i class='material-icons'>local_bar</i></span><span class='chip'>food<i class='material-icons'>local_dining</i></span>",
    "saved": ""
  },
  {
    "markerId": 23,
    "name": "Rontoms",
    "url": "http://www.rontoms.net/",
    "type": "Bar",
    "address": "600 East Burnside Street",
    "city": "Portland",
    "state": "OR",
    "image": "/images/bars/rontoms.jpg",
    "lat": 45.522535,
    "lng": -122.659492,
    "features": "<span class='chip'>drinks<i class='material-icons'>local_bar</i></span><span class='chip'>food<i class='material-icons'>local_dining</i></span>",
    "saved": ""
  },
  {
    "markerId": 24,
    "name": "Rum Club",
    "url": "http://www.rumclubpdx.com/",
    "type": "Bar",
    "address": "720 SE Sandy Blvd",
    "city": "Portland",
    "state": "OR",
    "image": "/images/bars/rum-club.jpg",
    "lat": 45.518985,
    "lng": -122.657896,
    "features": "<span class='chip'>drinks<i class='material-icons'>local_bar</i></span>",
    "saved": ""
  },
  {
    "markerId": 25,
    "name": "Sassys Bar and Grill",
    "url": "http://www.sassysbar.com/",
    "type": "Dive/Strip Club",
    "address": "927 Southeast Morrison Bridge",
    "city": "Portland",
    "state": "OR",
    "image": "/images/bars/sassys.jpg",
    "lat": 45.517337,
    "lng": -122.656052,
    "features": "<span class='chip'>drinks<i class='material-icons'>local_bar</i></span>",
    "saved": ""
  },
  {
    "markerId": 26,
    "name": "Fausse Piste",
    "url": "http://www.faussepiste.com/index.html",
    "type": "Wine Bar",
    "address": "537 SE Ash St #102",
    "city": "Portland",
    "state": "OR",
    "image": "/images/bars/fausse-piste.jpg",
    "lat": 45.521815,
    "lng": -122.659916,
    "features": "<span class='chip'>drinks<i class='material-icons'>local_bar</i></span>",
    "saved": ""
  },
  {
    "markerId": 27,
    "name": "Sizzle Pie",
    "url": "http://www.sizzlepie.com/",
    "type": "Bar",
    "address": "624 East Burnside Street",
    "city": "Portland",
    "state": "OR",
    "image": "/images/bars/sizzle-pie.jpg",
    "lat": 45.522745,
    "lng": -122.65907,
    "features": "<span class='chip'>restaurant<i class='material-icons'>restaurant</i></span><span class='chip'>drinks<i class='material-icons'>local_bar</i></span>",
    "saved": ""
  },
  {
    "markerId": 28,
    "name": "Slow Bar",
    "url": "http://slowbar.net/",
    "type": "Bar",
    "address": "533 Southeast Grand Avenue",
    "city": "Portland",
    "state": "OR",
    "image": "/images/bars/slow-bar.jpg",
    "lat": 45.518772,
    "lng": -122.661048,
    "features": "<span class='chip'>drinks<i class='material-icons'>local_bar</i></span><span class='chip'>food<i class='material-icons'>local_dining</i></span>",
    "saved": ""
  },
  {
    "markerId": 29,
    "name": "Speakeasy Tavern",
    "url": "http://gils-speakeasy.com/",
    "type": "Bar",
    "address": "609 Southeast Taylor Street",
    "city": "Portland",
    "state": "OR",
    "image": "/images/bars/speakeasy-tavern.jpg",
    "lat": 45.515324,
    "lng": -122.659385,
    "features": "<span class='chip'>drinks<i class='material-icons'>local_bar</i></span>",
    "saved": ""
  },
  {
    "markerId": 30,
    "name": "Spirit of 77",
    "url": "http://www.spiritof77bar.com/",
    "type": "Sports Bar",
    "address": "500 NE Martin Luther King Jr Blvd",
    "city": "Portland",
    "state": "OR",
    "image": "/images/bars/spirit-of-77.jpg",
    "lat": 45.526734,
    "lng": -122.661374,
    "features": "<span class='chip'>drinks<i class='material-icons'>local_bar</i></span><span class='chip'>food<i class='material-icons'>local_dining</i></span>",
    "saved": ""
  },
  {
    "markerId": 31,
    "name": "Star Bar",
    "url": "http://star-bar-rocks.com/",
    "type": "Bar",
    "address": "639 Southeast Morrison Street",
    "city": "Portland",
    "state": "OR",
    "image": "/images/bars/star-bar.jpg",
    "lat": 45.517438,
    "lng": -122.658919,
    "features": "<span class='chip'>drinks<i class='material-icons'>local_bar</i></span>",
    "saved": ""
  },
  {
    "markerId": 32,
    "name": "The Lovecraft Bar",
    "url": "http://thelovecraftbar.com/",
    "type": "Theme",
    "address": "421 SE Grand Ave",
    "city": "Portland",
    "state": "OR",
    "image": "/images/bars/lovecraft-bar.jpg",
    "lat": 45.519961,
    "lng": -122.660948,
    "features": "<span class='chip'>drinks<i class='material-icons'>local_bar</i></span>",
    "saved": ""
  },
  {
    "markerId": 33,
    "name": "The Side Door",
    "url": "http://thesidedoorpdx.com/",
    "type": "Deli",
    "address": "425 Southeast Washington Street",
    "city": "Portland",
    "state": "OR",
    "image": "/images/bars/side-door.jpg",
    "lat": 45.518812,
    "lng": -122.661173,
    "features": "<span class='chip'>food<i class='material-icons'>local_dining</i></span><span class='chip'>food<i class='material-icons'>local_dining</i></span>",
    "saved": ""
  },
  {
    "markerId": 34,
    "name": "The Wurst",
    "url": "http://thewurstpdx.com/#",
    "type": "Bar",
    "address": "724 E Burnside St",
    "city": "Portland",
    "state": "OR",
    "image": "/images/bars/the-wurst.jpg",
    "lat": 45.522752,
    "lng": -122.658001,
    "features": "<span class='chip'>drinks<i class='material-icons'>local_bar</i></span>",
    "saved": ""
  },
  {
    "markerId": 35,
    "name": "Upright Brewing",
    "url": "http://www.uprightbrewing.com/",
    "type": "Brewery",
    "address": "240 North Broadway #2",
    "city": "Portland",
    "state": "OR",
    "image": "/images/bars/upright-brewing.jpg",
    "lat": 45.534678,
    "lng": -122.668154,
    "features": "<span class='chip'>beers<i class='material-icons'>local_drink</i></span><span class='chip'>drinks<i class='material-icons'>local_bar</i></span>",
    "saved": ""
  },
  {
    "markerId": 36,
    "name": "Vie de Boheme",
    "url": "http://www.viedebohemepdx.com/",
    "type": "Bar",
    "address": "1530 Southeast 7th Avenue",
    "city": "Portland",
    "state": "OR",
    "image": "/images/bars/vie-de-boheme.jpg",
    "lat": 45.511639,
    "lng": -122.658401,
    "features": "<span class='chip'>drinks<i class='material-icons'>local_bar</i></span>",
    "saved": ""
  },
  {
    "markerId": 37,
    "name": "The Slammer",
    "url": "",
    "type": "Bar",
    "address": "500 SE 8th Ave",
    "city": "Portland",
    "state": "OR",
    "image": "/images/bars/the-slammer.jpg",
    "lat": 45.519221,
    "lng": -122.657473,
    "features": "<span class='chip'>drinks<i class='material-icons'>local_bar</i></span>",
    "saved": ""
  },
  {
    "markerId": 38,
    "name": "Pour Sports Bar and Grill",
    "url": "http://www.poursportspdx.com",
    "type": "Bar",
    "address": "832 SE Grand Ave",
    "city": "Portland",
    "state": "OR",
    "image": "/images/bars/pour-sports-bar.png",
    "lat": 45.516663,
    "lng": -122.660467,
    "features": "<span class='chip'>drinks<i class='material-icons'>local_bar</i></span><span class='chip'>food<i class='material-icons'>local_dining</i></span>",
    "saved": ""
  },
  {
    "markerId": 39,
    "name": "Base Camp Brewing Company",
    "url": "http://www.viedebohemepdx.com/",
    "type": "Brewery",
    "address": "930 SE Oak St",
    "city": "Portland",
    "state": "OR",
    "image": "/images/bars/base-camp-brewing.jpg",
    "lat": 45.519915,
    "lng": -122.655966,
    "features": "<span class='chip'>beers<i class='material-icons'>local_drink</i></span><span class='chip'>drinks<i class='material-icons'>local_bar</i></span><span class='chip'>food<i class='material-icons'>local_dining</i></span>",
    "saved": ""
  },
  {
    "markerId": 40,
    "name": "Carmellas Wines",
    "url": "http://www.carmellaswines.com",
    "type": "Wine Bar",
    "address": "1320 SE Water Ave",
    "city": "Portland",
    "state": "OR",
    "image": "/images/bars/carmellas-wine.jpg",
    "lat": 45.513321,
    "lng": -122.665584,
    "features": "<span class='chip'>drinks<i class='material-icons'>local_bar</i></span>",
    "saved": ""
  },
  {
    "markerId": 41,
    "name": "White Owl Social Club",
    "url": "http://www.whiteowlsocialclub.com",
    "type": "Bar",
    "address": "1305 SE 8th Ave",
    "city": "Portland",
    "state": "OR",
    "image": "/images/bars/white-owl-social-club.png",
    "lat": 45.513485,
    "lng": -122.657946,
    "features": "<span class='chip'>drinks<i class='material-icons'>local_bar</i></span>",
    "saved": ""
  },
  {
    "markerId": 42,
    "name": "Mad Sons Pub",
    "url": "http://www.madsonspub.com",
    "type": "Bar",
    "address": "1109 SE Madison St",
    "city": "Portland",
    "state": "OR",
    "image": "/images/bars/mad-sons-pub.png",
    "lat": 45.51334,
    "lng": -122.654264,
    "features": "<span class='chip'>beers<i class='material-icons'>local_drink</i></span><span class='chip'>drinks<i class='material-icons'>local_bar</i></span>",
    "saved": ""
  },
  {
    "markerId": 43,
    "name": "Ground Breaker Brewing and Gastropub",
    "url": "http://www.groundbreakerbrewing.com",
    "type": "Brew Pub",
    "address": "12030 SE 7th Ave",
    "city": "Portland",
    "state": "OR",
    "image": "/images/bars/ground-breaker-brewing-and-gastropub.jpg",
    "lat": 45.508089,
    "lng": -122.658494,
    "features": "<span class='chip'>restaurant<i class='material-icons'>restaurant</i></span><span class='chip'>beers<i class='material-icons'>local_drink</i></span><span class='chip'>drinks<i class='material-icons'>local_bar</i></span>",
    "saved": ""
  },
  {
    "markerId": 44,
    "name": "Lucky Labrador Brew Pub",
    "url": "http://www.luckylab.com",
    "type": "Brew Pub",
    "address": "915 SE Hawthorne Blvd",
    "city": "Portland",
    "state": "OR",
    "image": "/images/bars/lucky-lab.jpeg",
    "lat": 45.508089,
    "lng": -122.658494,
    "features": "<span class='chip'>food<i class='material-icons'>local_dining</i></span><span class='chip'>beers<i class='material-icons'>local_drink</i></span><span class='chip'>drinks<i class='material-icons'>local_bar</i></span><span class='chip'>pets<i class='material-icons'>pets</i></span>",
    "saved": ""
  },
  {
    "markerId": 45,
    "name": "Pips and Bounce",
    "url": "http://www.viedebohemepdx.com/",
    "type": "Table Tennis Parlor",
    "address": "833 SE Belmont St",
    "city": "Portland",
    "state": "OR",
    "image": "/images/bars/pip-and-bounce.png",
    "lat": 45.516592,
    "lng": -122.657078,
    "features": "<span class='chip'>drinks<i class='material-icons'>local_bar</i></span>",
    "saved": ""
  },
  {
    "markerId": 46,
    "name": "Grand Central Bowling",
    "url": "http://www.thegrandcentralbowl.com",
    "type": "Bowling Alley",
    "address": "808 SE Morrison St",
    "city": "Portland",
    "state": "OR",
    "image": "/images/bars/grand-central-bowling.png",
    "lat": 45.51707,
    "lng": -122.657366,
    "features": "<span class='chip'>beers<i class='material-icons'>local_drink</i></span><span class='chip'>food<i class='material-icons'>local_dining</i></span><span class='chip'>drinks<i class='material-icons'>local_bar</i></span>",
    "saved": ""
  },
  {
    "markerId": 47,
    "name": "Loyal Legion Pub",
    "url": "http://www.loyallegionpdx.com",
    "type": "Bar",
    "address": "710 SE 6th Ave",
    "city": "Portland",
    "state": "OR",
    "image": "/images/bars/loyal-legion.jpg",
    "lat": 45.517735,
    "lng": -122.659715,
    "features": "<span class='chip'>beers<i class='material-icons'>local_drink</i></span><span class='chip'>food<i class='material-icons'>local_dining</i></span><span class='chip'>drinks<i class='material-icons'>local_bar</i></span>",
    "saved": ""
  },
  {
    "markerId": 48,
    "name": "Oso Market and Bar",
    "url": "http://www.osomarket.com",
    "type": "Bar",
    "address": "726 SE Grand Ave",
    "city": "Portland",
    "state": "OR",
    "image": "/images/bars/oso-market-and-bar.jpg",
    "lat": 45.517505,
    "lng": -122.66041,
    "features": "<span class='chip'>food<i class='material-icons'>local_dining</i></span><span class='chip'>drinks<i class='material-icons'>local_bar</i></span>",
    "saved": ""
  },
  {
    "markerId": 49,
    "name": "Voicebox Karaoke Southeast",
    "url": "http://www.voiceboxpdx.com",
    "type": "Bar",
    "address": "734 SE 6th Ave",
    "city": "Portland",
    "state": "OR",
    "image": "/images/bars/voicebox-karaoke.jpg",
    "lat": 45.517519,
    "lng": -122.659415,
    "features": "<span class='chip'>drinks<i class='material-icons'>local_bar</i></span>",
    "saved": ""
  },
  {
    "markerId": 50,
    "name": "Bunk Morrison",
    "url": "http://www.bunksandwiches.com",
    "type": "Bar",
    "address": "621 SE Morrison St",
    "city": "Portland",
    "state": "OR",
    "image": "/images/bars/bunk-morrison.jpg",
    "lat": 45.51743,
    "lng": -122.659143,
    "features": "<span class='chip'>food<i class='material-icons'>local_dining</i></span><span class='chip'>drinks<i class='material-icons'>local_bar</i></span>",
    "saved": ""
  },
  {
    "markerId": 51,
    "name": "Trifecta Tavern",
    "url": "http://http://www.trifectapdx.com/",
    "type": "Bar",
    "address": "726 SE 6th Ave",
    "city": "Portland",
    "state": "OR",
    "image": "/images/bars/trifecta-tavern.png",
    "lat": 45.517588,
    "lng": -122.659399,
    "features": "<span class='chip'>drinks<i class='material-icons'>local_bar</i></span>",
    "saved": ""
  },
  {
    "markerId": 52,
    "name": "Charlie Horse Saloon",
    "url": "#",
    "type": "Bar",
    "address": "627 SE Morrison St",
    "city": "Portland",
    "state": "OR",
    "image": "/images/bars/charlie-horse-saloon.jpg",
    "lat": 45.517441,
    "lng": -122.659036,
    "features": "<span class='chip'>beers<i class='material-icons'>local_drink</i></span><span class='chip'>drinks<i class='material-icons'>local_bar</i></span>",
    "saved": ""
  },
  {
    "markerId": 53,
    "name": "Kachka",
    "url": "http://www.kachkapdx.com",
    "type": "Bar",
    "address": "720 SE Grand Ave",
    "city": "Portland",
    "state": "OR",
    "image": "/images/bars/kachka.png",
    "lat": 45.517563,
    "lng": -122.660408,
    "features": "<span class='chip'>restaurant<i class='material-icons'>restaurant</i></span><span class='chip'>drinks<i class='material-icons'>local_</i></span>",
    "saved": ""
  },
  {
    "markerId": 54,
    "name": "Altabira City Tavern",
    "url": "http://www.altabira.com/",
    "type": "Bar",
    "address": "1021 NE Grand Avenue #600",
    "city": "Portland",
    "state": "OR",
    "image": "/images/bars/altabira.png",
    "lat": 45.530452,
    "lng": -122.66094,
    "features": "<span class='chip'>bar<i class='material-icons'>local_drink</i></span><span class='chip'>cocktails<i class='material-icons'>local_bar</i></span><span class='chip'>restaurant<i class='material-icons'>restaurant</i></span>",
    "saved": ""
  },
  {
    "markerId": 55,
    "name": "Reverend Nats Hard Cider",
    "url": "reverendnatshardcider.com",
    "type": "Cidery",
    "address": "1813 NE 2nd Ave",
    "city": "Portland",
    "state": "OR",
    "image": "/images/bars/rev-nat.jpg",
    "lat": 45.536087,
    "lng": -122.663794,
    "features": "<span class='chip'>cider<i class='material-icons'>local_drink</i></span>",
    "saved": ""
  },
  {
    "markerId": 56,
    "name": "Olympic Provisions",
    "url": "http://www.olympiaprovisions.com/",
    "type": "Restaurant",
    "address": "107 SE Washington St",
    "city": "Portland",
    "state": "OR",
    "image": "/images/bars/olympic-provisions.png",
    "lat": 45.519022,
    "lng": -122.664279,
    "features": "<span class='chip'>restaurant<i class='material-icons'>restaurant</i></span><span class='chip'>drinks<i class='material-icons'>local_bar</i></span>",
    "saved": ""
  }
]